{"type":"FeatureCollection","crs":{"type":"name","properties":{"name":"EPSG:4326"}},"features":[{"type":"Feature","id":1,"geometry":{"type":"Point","coordinates":[-88.1412624925496,42.001746184896]},"properties":{"OBJECTID":1,"NAME":"Hanover Park Water Reclamation Plant","TYPE":1,"Address":"1200 Sycamore Ave, Hanover Park, IL 60133","PhoneNumber":"(630) 837-1118"}},{"type":"Feature","id":2,"geometry":{"type":"Point","coordinates":[-87.9349882731191,42.0203345588633]},"properties":{"OBJECTID":2,"NAME":"Kirie Water Reclamation Plant","TYPE":1,"Address":"701 West Oakton Street, Des Plaines, Illinois 60018","PhoneNumber":"(847) 375-2400"}},{"type":"Feature","id":3,"geometry":{"type":"Point","coordinates":[-88.0383216182623,42.0197539907097]},"properties":{"OBJECTID":3,"NAME":"Egan Water Reclamation Plant","TYPE":1,"Address":"550 S Meacham Rd, Schaumburg, IL 60193","PhoneNumber":"(847) 584-5400"}},{"type":"Feature","id":4,"geometry":{"type":"Point","coordinates":[-87.716105935567,42.0208769223246]},"properties":{"OBJECTID":4,"NAME":"O'Brien Water Reclamation Plant","TYPE":1,"Address":"3500 Howard Street Skokie, IL 60076","PhoneNumber":"(847) 568-8100"}},{"type":"Feature","id":5,"geometry":{"type":"Point","coordinates":[-87.9978265823096,41.6783553067256]},"properties":{"OBJECTID":5,"NAME":"Lemont Water Reclamation Plant","TYPE":1,"Address":"13 Stephen St, Lemont, IL 60439","PhoneNumber":"(630) 257-7371"}},{"type":"Feature","id":6,"geometry":{"type":"Point","coordinates":[-87.6074739590313,41.6664150164258]},"properties":{"OBJECTID":6,"NAME":"Calumet Water Reclamation Plant","TYPE":1,"Address":"400 E 130th St, Chicago, IL 60628","PhoneNumber":"(773) 256-3538"}},{"type":"Feature","id":7,"geometry":{"type":"Point","coordinates":[-87.7691509377922,41.8170564525252]},"properties":{"OBJECTID":7,"NAME":"Stickney Water Reclamation Plant","TYPE":1,"Address":"6001 West Pershing Road Cicero, IL 60804","PhoneNumber":"(708) 656-2356"}}]}